{
    "ATL": {
      "name": "Hartsfield-Jackson Atlanta International Airport",
      "city": "Atlanta",
      "country": "United States",
      "lat": 33.6367,
      "lng": -84.4278
    },
    "PEK": {
      "name": "Beijing Capital International Airport",
      "city": "Beijing",
      "country": "China",
      "lat": 40.0799,
      "lng": 116.6031
    },
    "DXB": {
      "name": "Dubai International Airport",
      "city": "Dubai",
      "country": "United Arab Emirates",
      "lat": 25.2532,
      "lng": 55.3657
    },
    "LAX": {
      "name": "Los Angeles International Airport",
      "city": "Los Angeles",
      "country": "United States",
      "lat": 33.9416,
      "lng": -118.4085
    },
    "HND": {
      "name": "Tokyo Haneda Airport",
      "city": "Tokyo",
      "country": "Japan",
      "lat": 35.5494,
      "lng": 139.7798
    },
    "LHR": {
      "name": "London Heathrow Airport",
      "city": "London",
      "country": "United Kingdom",
      "lat": 51.4700,
      "lng": -0.4543
    },
    "ORD": {
      "name": "O'Hare International Airport",
      "city": "Chicago",
      "country": "United States",
      "lat": 41.9742,
      "lng": -87.9073
    },
    "CDG": {
      "name": "Paris Charles de Gaulle Airport",
      "city": "Paris",
      "country": "France",
      "lat": 49.0097,
      "lng": 2.5479
    },
    "DFW": {
      "name": "Dallas/Fort Worth International Airport",
      "city": "Dallas",
      "country": "United States",
      "lat": 32.8998,
      "lng": -97.0403
    },
    "CGK": {
      "name": "Soekarno-Hatta International Airport",
      "city": "Jakarta",
      "country": "Indonesia",
      "lat": -6.1256,
      "lng": 106.6558
    },
    "AMS": {
      "name": "Amsterdam Airport Schiphol",
      "city": "Amsterdam",
      "country": "Netherlands",
      "lat": 52.3105,
      "lng": 4.7683
    },
    "FRA": {
      "name": "Frankfurt Airport",
      "city": "Frankfurt",
      "country": "Germany",
      "lat": 50.0379,
      "lng": 8.5622
    },
    "IST": {
      "name": "Istanbul Airport",
      "city": "Istanbul",
      "country": "Turkey",
      "lat": 41.2608,
      "lng": 28.7418
    },
    "CAN": {
      "name": "Guangzhou Baiyun International Airport",
      "city": "Guangzhou",
      "country": "China",
      "lat": 23.3959,
      "lng": 113.3080
    },
    "SIN": {
      "name": "Singapore Changi Airport",
      "city": "Singapore",
      "country": "Singapore",
      "lat": 1.3644,
      "lng": 103.9915
    },
    "JFK": {
      "name": "John F. Kennedy International Airport",
      "city": "New York",
      "country": "United States",
      "lat": 40.6413,
      "lng": -73.7781
    },
    "DEN": {
      "name": "Denver International Airport",
      "city": "Denver",
      "country": "United States",
      "lat": 39.8561,
      "lng": -104.6737
    },
    "BKK": {
      "name": "Suvarnabhumi Airport",
      "city": "Bangkok",
      "country": "Thailand",
      "lat": 13.6900,
      "lng": 100.7501
    },
    "SFO": {
      "name": "San Francisco International Airport",
      "city": "San Francisco",
      "country": "United States",
      "lat": 37.6213,
      "lng": -122.3790
    },
    "MAD": {
      "name": "Adolfo Suárez Madrid–Barajas Airport",
      "city": "Madrid",
      "country": "Spain",
      "lat": 40.4983,
      "lng": -3.5676
    },
    "SEA": {
      "name": "Seattle-Tacoma International Airport",
      "city": "Seattle",
      "country": "United States",
      "lat": 47.4502,
      "lng": -122.3088
    },
    "LAS": {
      "name": "Harry Reid International Airport",
      "city": "Las Vegas",
      "country": "United States",
      "lat": 36.0840,
      "lng": -115.1537
    },
    "MIA": {
      "name": "Miami International Airport",
      "city": "Miami",
      "country": "United States",
      "lat": 25.7932,
      "lng": -80.2906
    },
    "YYZ": {
      "name": "Toronto Pearson International Airport",
      "city": "Toronto",
      "country": "Canada",
      "lat": 43.6777,
      "lng": -79.6248
    },
    "SYD": {
      "name": "Sydney Airport",
      "city": "Sydney",
      "country": "Australia",
      "lat": -33.9399,
      "lng": 151.1753
    },
    "MEX": {
      "name": "Mexico City International Airport",
      "city": "Mexico City",
      "country": "Mexico",
      "lat": 19.4363,
      "lng": -99.0721
    },
    "HKG": {
      "name": "Hong Kong International Airport",
      "city": "Hong Kong",
      "country": "China",
      "lat": 22.3080,
      "lng": 113.9185
    },
    "LGW": {
      "name": "London Gatwick Airport",
      "city": "London",
      "country": "United Kingdom",
      "lat": 51.1537,
      "lng": -0.1821
    },
    "BCN": {
      "name": "Barcelona–El Prat Airport",
      "city": "Barcelona",
      "country": "Spain",
      "lat": 41.2974,
      "lng": 2.0833
    },
    "EWR": {
      "name": "Newark Liberty International Airport",
      "city": "Newark",
      "country": "United States",
      "lat": 40.6895,
      "lng": -74.1745
    }
  }